,City,Cloudiness,Country,Date,Humidity,Lat,Lng,Max Temp,Wind Speed
0,Bluff,0,AU,1554086223,47,-23.58,149.07,79.13,6.98
1,Thompson,75,CA,1554084000,62,55.74,-97.86,24.8,5.82
2,Iqaluit,75,CA,1554084000,77,63.75,-68.52,3.2,5.82
3,Avarua,0,CK,1554084000,83,-21.21,-159.78,80.6,12.75
4,Mount Gambier,90,AU,1554084000,51,-37.83,140.78,62.6,5.82
5,Punta Arenas,75,CL,1554085946,87,-53.16,-70.91,50.0,8.05
6,Ushuaia,90,AR,1554084000,76,-54.81,-68.31,48.2,10.29
7,Nikolskoye,0,RU,1554086198,84,59.7,30.79,32.0,13.42
8,Pirgos,75,GR,1554086369,62,35.12,25.72,55.99,23.04
9,Jamestown,0,AU,1554086237,60,-33.21,138.6,67.43,2.51
10,Rikitea,36,PF,1554086215,100,-23.12,-134.97,76.79,16.82
11,Pochutla,75,MX,1554085911,58,15.74,-96.47,82.4,4.97
12,Rocha,64,UY,1554086403,96,-34.48,-54.34,59.51,3.96
13,Kapaa,20,US,1554086303,54,22.08,-159.32,80.6,19.46
14,Bhilwara,0,IN,1554086404,25,25.35,74.64,79.22,4.52
15,Tsuruga,80,JP,1554086014,75,35.64,136.07,46.99,4.0
16,Vaini,0,IN,1554084000,88,15.34,74.49,71.6,3.36
17,Labuhan,36,ID,1554086149,73,-2.54,115.51,85.43,2.73
18,Westport,76,IE,1554086292,90,53.8,-9.52,43.0,1.01
19,Moron,88,VE,1554086405,95,10.49,-68.2,71.57,3.18
20,Port-Gentil,8,GA,1554086405,98,-0.72,8.78,81.92,5.97
21,Mataura,80,NZ,1554085809,67,-46.19,168.86,55.0,5.99
22,Uray,88,RU,1554086406,85,60.13,64.8,29.27,8.21
23,Broome,0,GB,1554086404,78,52.47,1.45,44.01,4.7
24,Gejiu,56,CN,1554085907,54,23.36,103.16,81.0,2.73
25,Esperance,20,TT,1554086106,83,10.24,-61.45,77.0,6.93
26,Lata,0,IN,1554086150,58,30.78,78.62,52.49,2.06
27,Kodiak,1,US,1554086326,37,39.95,-94.76,39.0,5.82
28,Barrow,44,AR,1554086407,60,-38.31,-60.23,68.15,7.76
29,Busselton,48,AU,1554086221,34,-33.64,115.35,82.99,12.35
30,Bubaque,0,GW,1554086407,91,11.28,-15.83,82.55,4.85
31,Masvingo,0,ZW,1554086408,91,-20.08,30.83,57.35,2.73
32,Zyryanovsk,32,KZ,1554086408,96,49.74,84.27,42.14,2.17
33,San Cristobal,75,EC,1554085907,93,-0.39,-78.55,57.2,5.82
34,El Alto,40,BO,1554084000,87,-16.5,-68.19,46.4,4.7
35,Qaanaaq,68,GL,1554086409,79,77.48,-69.36,-1.79,6.42
36,Palestine,1,US,1554086117,70,31.76,-95.63,46.0,3.36
37,Vao,8,EE,1554086230,88,59.1,26.19,30.98,10.0
38,Zamora,92,ES,1554085232,86,41.51,-5.74,48.0,4.7
39,Svetlogorsk,40,RU,1554084000,86,53.14,59.15,33.8,17.9
40,Atuona,20,PF,1554086410,100,-9.8,-139.03,82.28,12.01
41,Albany,40,US,1554086352,59,42.65,-73.75,37.4,16.11
42,Nanortalik,12,GL,1554086166,100,60.14,-45.24,26.48,19.28
43,Clyde River,90,CA,1554084000,91,70.47,-68.59,1.4,5.82
44,Tessalit,92,ML,1554086167,37,20.2,1.01,77.06,10.67
45,Husavik,8,CA,1554086403,78,50.56,-96.99,32.0,5.01
46,Grenville,90,CA,1554086405,71,45.62,-74.6,33.01,3.36
47,Hermanus,44,ZA,1554085885,66,-34.42,19.24,57.0,4.0
48,Kupang,40,ID,1554084000,66,-10.16,123.6,89.6,5.82
49,Hofn,68,IS,1554086411,99,64.25,-15.21,40.16,16.93
50,Carnarvon,0,ZA,1554086411,46,-30.97,22.13,48.71,10.78
51,Anadyr,90,RU,1554085946,94,64.73,177.51,33.8,24.61
52,Saint-Philippe,90,CA,1554086405,90,45.36,-73.48,32.0,9.17
53,Lloydminster,90,CA,1554084000,69,53.28,-110.01,33.8,4.7
54,Sinnamary,56,GF,1554086412,96,5.38,-52.96,79.58,8.66
55,Solnechnyy,80,RU,1554086412,71,50.72,136.64,27.83,6.42
56,Kakching,80,IN,1554086412,85,24.5,93.98,69.68,1.72
57,Trincomalee,0,LK,1554086412,66,8.58,81.23,85.07,6.08
58,Kemptville,90,CA,1554086401,74,45.02,-75.64,32.0,13.87
59,Faya,0,SA,1554084000,71,18.39,42.45,60.8,11.41
60,Batagay,0,RU,1554086413,61,67.65,134.64,22.7,4.29
61,Chimbote,20,PE,1554086413,95,-9.08,-78.59,67.88,8.77
62,Ukiah,44,US,1554086163,59,39.15,-123.21,55.99,1.95
63,Kose,0,EE,1554086284,74,59.18,25.17,35.6,12.75
64,Talnakh,88,RU,1554086245,97,69.49,88.39,29.27,13.8
65,Ahipara,92,NZ,1554086336,100,-35.17,173.16,68.24,7.76
66,Dengzhou,0,CN,1554086414,64,32.69,112.08,65.18,7.2
67,Port Alfred,20,ZA,1554086414,94,-33.59,26.89,66.35,24.54
68,Coihaique,0,CL,1554084000,62,-45.58,-72.07,53.6,21.92
69,San Ignacio,0,CL,1554084000,100,-36.8,-72.03,53.6,2.24
70,Luderitz,12,NA,1554086250,83,-26.65,15.16,59.96,18.84
71,Chuy,44,UY,1554086214,90,-33.69,-53.46,64.01,4.97
72,Turan,64,RU,1554086415,79,52.15,93.92,35.75,2.62
73,Lianzhou,100,CN,1554086415,99,24.79,112.38,53.48,2.73
74,Prince Rupert,1,CA,1554084000,57,54.32,-130.32,51.8,4.7
75,Balkhash,44,KZ,1554086416,81,46.84,74.98,42.5,10.56
76,Eyl,80,SO,1554086416,100,7.98,49.82,78.23,5.86
77,Saskylakh,44,RU,1554086416,92,71.97,114.09,26.39,13.24
78,Torbay,90,CA,1554085955,100,47.66,-52.73,43.0,8.05
79,Manjeri,32,IN,1554084000,83,11.12,76.12,80.6,4.7
80,Vila Velha,68,BR,1554086289,94,-3.71,-38.6,79.0,13.0
81,Hobart,40,AU,1554086416,41,-42.88,147.33,63.0,5.82
82,Phonhong,20,LA,1554084000,74,18.5,102.42,84.2,4.7
83,Castro,90,CL,1554084000,100,-42.48,-73.76,51.8,4.7
84,San Ramon,0,NI,1554086163,70,12.92,-85.84,68.0,1.01
85,Dikson,76,RU,1554086418,97,73.51,80.55,30.17,19.39
86,Kaitangata,32,NZ,1554086307,32,-46.28,169.85,62.01,25.01
87,New Norfolk,40,AU,1554086176,41,-42.78,147.06,63.0,5.82
88,Nosy Varika,88,MG,1554086418,100,-20.58,48.53,74.0,3.06
89,Cidreira,0,BR,1554086419,95,-30.17,-50.22,66.17,2.62
90,Vestmannaeyjar,0,IS,1554086255,100,63.44,-20.27,32.96,9.55
91,Tuktoyaktuk,75,CA,1554084000,85,69.44,-133.03,19.4,26.4
92,Bathsheba,20,BB,1554084000,73,13.22,-59.52,77.0,10.29
93,Pinar del Rio,80,CU,1554086420,72,22.42,-83.7,76.43,2.06
94,Deer Lake,75,CA,1554084000,86,49.18,-57.43,39.2,2.24
95,Arraial do Cabo,20,BR,1554086420,98,-22.97,-42.02,74.99,3.62
96,Mnogovershinnyy,80,RU,1554086420,68,53.94,139.92,24.05,4.85
97,Monroe,90,US,1554086118,63,41.91,-83.4,32.0,8.05
98,Paamiut,76,GL,1554086421,100,61.99,-49.67,26.03,11.23
99,Hilo,90,US,1554086120,83,19.71,-155.08,77.0,11.41
100,Havre-Saint-Pierre,90,CA,1554084000,86,50.23,-63.6,39.2,10.29
101,Puerto Ayora,0,EC,1554085851,92,-0.74,-90.35,79.0,1.01
102,Upernavik,80,GL,1554086421,100,72.79,-56.15,10.73,4.85
103,Cherskiy,0,RU,1554086421,68,68.75,161.3,16.13,3.96
104,Wakkanai,40,JP,1554084000,55,45.41,141.67,33.8,5.82
105,Cobija,32,BR,1554086422,98,-11.02,-68.77,74.45,1.16
106,Victoria,75,BN,1554084000,62,5.28,115.24,86.0,10.29
107,Narsaq,0,GL,1554083400,43,60.91,-46.05,14.0,5.82
108,Alofi,92,NU,1554084000,83,-19.06,-169.92,80.6,10.29
109,San Patricio,76,PY,1554086422,72,-26.98,-56.83,78.41,3.96
110,Olinda,75,EC,1554086388,78,-2.03,-79.75,80.6,9.17
111,Kamenka,56,RU,1554085608,73,53.19,44.05,41.0,12.57
112,Sakaiminato,75,JP,1554085996,70,35.55,133.23,45.0,12.75
113,Severo-Kurilsk,76,RU,1554086423,100,50.68,156.12,29.63,2.06
114,Inuvik,90,CA,1554084000,74,68.36,-133.71,28.4,14.99
115,Lake Cowichan,20,CA,1554086345,47,48.82,-124.05,57.2,2.24
116,Tokur,12,RU,1554086424,51,53.13,132.9,24.05,5.19
117,Namatanai,56,PG,1554086424,97,-3.66,152.44,83.45,12.24
118,Kulachi,0,PK,1554086424,20,31.93,70.46,64.28,2.28
119,Luganville,20,VU,1554086424,98,-15.51,167.18,84.35,7.76
120,Sarangani,0,PH,1554086425,97,5.4,125.46,82.1,3.18
121,Bambous Virieux,75,MU,1554086341,94,-20.34,57.76,75.2,5.82
122,Naze,40,NG,1554084000,88,5.43,7.07,75.2,4.41
123,Port Elizabeth,1,US,1554086418,38,39.31,-74.98,45.0,16.11
124,Ostrovnoy,32,RU,1554086130,82,68.05,39.51,22.7,17.83
125,Hambantota,20,LK,1554084600,94,6.12,81.12,80.6,5.82
126,Athabasca,24,CA,1554086426,83,54.72,-113.29,32.96,6.53
127,Ribeira Grande,64,PT,1554086426,100,38.52,-28.7,59.33,25.55
128,Jijiga,0,ET,1554086426,64,9.35,42.8,51.41,3.4
129,Seoul,1,KR,1554084600,22,37.57,126.98,48.2,4.7
130,East London,80,ZA,1554086426,100,-33.02,27.91,71.21,27.34
131,Cape Town,40,ZA,1554085990,67,-33.93,18.42,60.01,12.75
132,Lasa,40,CY,1554085956,87,34.92,32.53,51.8,9.17
133,Provideniya,90,RU,1554084000,100,64.42,-173.23,32.0,6.71
134,Rawson,0,AR,1554086427,49,-43.3,-65.11,57.26,2.95
135,Saint George,0,GR,1554083400,86,39.45,22.34,42.8,2.62
136,Deputatskiy,32,RU,1554086158,90,69.3,139.9,19.01,3.74
137,Prado,8,BR,1554086176,95,-17.34,-39.22,81.38,12.35
138,Guerrero Negro,48,MX,1554086145,29,27.97,-114.04,71.66,10.56
139,Kuusamo,0,FI,1554083400,79,65.96,29.19,21.2,9.17
140,Teahupoo,75,PF,1554085941,74,-17.83,-149.27,86.0,6.93
141,Mahibadhoo,0,MV,1554086242,100,3.78,72.97,83.81,3.96
142,Santa Maria,64,BR,1554086429,89,-29.69,-53.81,69.23,6.53
143,Shubarshi,0,KZ,1554086429,75,48.59,57.19,26.66,3.06
144,Mount Isa,0,AU,1554084000,28,-20.73,139.49,80.6,11.41
145,Bredasdorp,8,ZA,1554084000,76,-34.53,20.04,55.4,8.05
146,Dalby,75,AU,1554086124,49,-27.18,151.26,80.01,10.29
147,Yellowknife,75,CA,1554086281,86,62.45,-114.38,33.8,10.29
148,Tilichiki,88,RU,1554086430,91,60.47,166.1,34.4,13.13
149,Touros,40,BR,1554084000,100,-5.2,-35.46,77.0,2.24
150,Butaritari,88,KI,1554086430,100,3.07,172.79,80.93,9.55
151,Kemin,12,KG,1554086430,73,42.79,75.7,31.7,1.95
152,Lebu,40,ET,1554084000,55,8.96,38.73,60.8,2.24
153,Puerto Quijarro,0,BO,1554086431,77,-19.0,-57.72,80.03,2.17
154,Tasiilaq,88,GL,1554083400,73,65.61,-37.64,21.2,8.05
155,Kloulklubed,75,PW,1554083400,78,7.04,134.26,82.4,9.17
156,Rembang,88,ID,1554086431,100,-6.71,111.35,81.47,4.41
157,Jasper,32,US,1554086431,70,33.83,-87.28,46.0,7.65
158,Srednekolymsk,0,RU,1554086432,61,67.46,153.71,23.15,4.63
159,Huadian,64,CN,1554086432,37,42.97,126.75,37.37,7.87
160,Pallasovka,0,RU,1554086432,63,50.04,46.89,35.21,12.24
161,Hamilton,40,BM,1554085831,88,32.3,-64.78,68.0,8.05
162,San Andres,0,PH,1554086432,100,13.32,122.68,81.02,9.33
163,Nola,8,CF,1554086433,79,3.52,16.05,73.91,3.74
164,Khatanga,88,RU,1554086214,97,71.98,102.47,30.53,6.64
165,Santa Cruz do Capibaribe,92,BR,1554086433,94,-7.95,-36.21,73.28,3.74
166,Beringovskiy,88,RU,1554086433,96,63.05,179.32,32.6,16.26
167,Yaan,44,NG,1554086433,78,7.38,8.57,79.94,7.87
168,Evensk,88,RU,1554086433,88,61.92,159.24,32.24,19.39
169,Lagoa,75,PT,1554086233,87,37.14,-8.45,59.0,5.82
170,Pointe Michel,76,DM,1554086434,94,15.25,-61.38,78.32,12.35
171,La Palma,76,CO,1554086434,92,5.36,-74.39,68.96,1.83
172,Tautira,75,PF,1554085941,74,-17.73,-149.15,86.0,6.93
173,Laguna,20,MX,1554082800,43,27.52,-110.01,71.6,4.7
174,Axim,8,GH,1554086435,100,4.87,-2.24,82.55,6.64
175,Saint-Georges,64,CA,1554085863,88,46.12,-70.67,30.99,5.99
176,Lahaina,20,US,1554086419,48,20.87,-156.68,84.2,14.99
177,San Quintin,8,PH,1554086436,50,17.54,120.52,87.05,3.62
178,Nioro,0,GM,1554086436,39,13.79,-15.05,77.06,11.12
179,Blind River,1,CA,1554084900,62,46.19,-82.96,23.0,3.36
180,Harnosand,0,SE,1554086343,79,62.63,17.94,30.99,3.36
181,La Baule-Escoublac,0,FR,1554086226,87,47.28,-2.4,52.0,1.12
182,Baijiantan,0,CN,1554086142,71,45.63,85.18,55.82,4.52
183,Belvidere,40,US,1554086436,63,42.26,-88.84,33.01,7.99
184,Wasilla,1,US,1554086404,34,61.58,-149.44,53.6,4.7
185,Springbok,0,ZA,1554086437,90,-29.67,17.88,43.04,3.4
186,Burgeo,92,CA,1554086438,92,47.61,-57.61,32.33,17.72
187,Los Llanos de Aridane,92,ES,1554084000,63,28.66,-17.92,60.8,5.82
188,Ilulissat,0,GL,1554083400,61,69.22,-51.1,15.8,18.34
189,Antofagasta,75,CL,1554084000,82,-23.65,-70.4,64.4,11.41
190,Waipawa,92,NZ,1554084737,80,-39.94,176.59,69.01,13.24
191,Shimoda,40,JP,1554086411,62,34.7,138.93,60.01,11.41
192,Taltal,12,CL,1554086439,100,-25.41,-70.49,55.19,1.5
193,Ialibu,36,PG,1554086439,86,-6.28,143.99,66.98,2.51
194,Boguchany,80,RU,1554086439,76,58.38,97.46,41.15,8.77
195,Palana,0,RU,1554086439,65,59.08,159.95,37.55,4.63
196,Cabo San Lucas,5,MX,1554086115,41,22.89,-109.91,77.0,6.93
197,Catabola,20,AO,1554086440,74,-12.14,17.29,57.17,2.73
198,Pundaguitan,0,PH,1554086201,95,6.37,126.17,82.28,4.07
199,Makat,0,KZ,1554086440,82,47.65,53.35,32.42,2.95
200,Grindavik,20,IS,1554086215,80,63.84,-22.43,32.0,8.05
201,Puerto Escondido,40,MX,1554083100,74,15.86,-97.07,80.6,7.09
202,Chokurdakh,0,RU,1554086256,96,70.62,147.9,21.35,4.97
203,Burgos,75,ES,1554086191,87,42.34,-3.7,43.0,8.05
204,Lubumbashi,24,CD,1554086145,74,-11.66,27.48,67.16,1.39
205,Koungheul,0,SN,1554086441,39,13.98,-14.8,77.06,11.12
206,Yulara,0,AU,1554084000,22,-25.24,130.99,75.2,13.87
207,Dondo,20,MZ,1554084000,100,-19.62,34.74,73.4,2.24
208,Dunmore East,92,IE,1554086281,84,52.15,-6.99,48.0,9.22
209,Balabac,0,PH,1554086442,97,7.99,117.06,83.45,8.77
210,Hasaki,40,JP,1554086250,26,35.73,140.83,59.0,11.41
211,Ponta do Sol,32,BR,1554086235,81,-20.63,-46.0,64.1,2.51
212,Qasigiannguit,0,GL,1554083400,61,68.82,-51.19,15.8,18.34
213,Iwanai,48,JP,1554086443,88,42.97,140.51,38.0,2.62
214,La Ronge,75,CA,1554084000,54,55.1,-105.3,32.0,2.24
215,Tanout,12,NE,1554086443,20,14.97,8.88,71.57,8.77
216,West Wendover,1,US,1554083760,37,40.74,-114.07,51.8,6.93
217,Bereda,0,ES,1554086404,93,43.27,-7.54,55.0,4.07
218,Nouadhibou,8,MR,1554084000,82,20.93,-17.03,62.6,13.87
219,Henties Bay,0,NA,1554084143,86,-22.12,14.28,63.0,3.0
220,Comodoro Rivadavia,0,AR,1554084000,35,-45.87,-67.48,69.8,10.29
221,Dunedin,32,NZ,1554086199,41,-45.87,170.5,64.99,17.0
222,Suez,0,EG,1554086444,84,29.97,32.54,46.01,4.85
223,Taybad,80,IR,1554086444,87,34.74,60.78,47.18,5.08
224,Koscierzyna,12,PL,1554086353,92,54.12,17.98,34.0,1.12
225,Isparta,75,TR,1554085200,86,37.77,30.56,36.0,4.7
226,Tuatapere,76,NZ,1554086406,64,-46.13,167.69,55.99,5.99
227,Payo,76,ID,1554086445,95,-3.75,103.64,78.05,4.29
228,Alyangula,75,AU,1554084060,74,-13.85,136.42,84.2,5.82
229,Homa Bay,80,KE,1554086445,100,-0.53,34.45,65.54,5.3
230,Mahebourg,75,MU,1554086341,94,-20.41,57.7,75.2,5.82
231,Balikpapan,40,ID,1554084000,79,-1.24,116.86,84.2,5.82
232,Meadow Lake,24,CA,1554086446,62,54.13,-108.44,29.09,6.2
233,Huarmey,8,PE,1554086446,90,-10.07,-78.15,64.28,3.96
234,Ternate,75,PH,1554086386,66,14.29,120.72,87.01,9.17
235,Saint-Pierre,0,FR,1554086434,87,48.95,4.24,51.8,12.75
236,Half Moon Bay,1,US,1554086366,93,37.46,-122.43,68.0,7.31
237,Paraiso,5,MX,1554083220,15,24.01,-104.61,71.6,9.17
238,Bandarbeyla,76,SO,1554086448,100,9.49,50.81,77.78,2.62
239,Hervey Bay,75,AU,1554086420,50,-25.3,152.85,82.99,16.11
240,Samana,56,EC,1554086448,94,0.12,-76.97,73.91,2.06
241,Souillac,0,FR,1554086163,57,45.6,-0.6,51.8,2.95
242,Kavieng,36,PG,1554086448,100,-2.57,150.8,82.46,7.87
243,Bibiani,8,GH,1554086449,91,6.45,-2.31,74.63,5.19
244,Vanavara,92,RU,1554086449,91,60.35,102.28,35.93,8.32
245,Atar,0,MR,1554086449,84,20.52,-13.05,47.99,3.51
246,Saravan,75,AM,1554084000,65,39.72,45.65,41.0,6.93
247,Vila Franca do Campo,75,PT,1554085800,82,37.72,-25.43,55.4,18.34
248,Georgetown,20,GY,1554084000,88,6.8,-58.16,75.2,4.7
249,Leshukonskoye,8,RU,1554086160,90,64.9,45.76,24.86,4.52
250,Ancud,90,CL,1554084000,100,-41.87,-73.83,51.8,4.7
251,Klaksvik,80,FO,1554083400,75,62.23,-6.59,42.8,13.87
252,Qaqortoq,0,GL,1554083400,43,60.72,-46.03,14.0,5.82
253,Mogok,8,MM,1554086451,49,22.92,96.51,79.22,2.62
254,Zelenoborskiy,0,RU,1554086452,72,66.84,32.36,23.15,8.77
255,Ha Tinh,92,VN,1554086405,100,18.33,105.9,73.01,9.78
256,Kabalo,88,CD,1554086452,98,-6.05,26.92,69.95,4.41
257,Mayo,75,CA,1554084000,34,63.59,-135.9,51.8,5.82
258,Umea,0,SE,1554083400,63,63.83,20.26,28.4,4.7
259,Sokoni,48,CD,1554086452,60,-12.89,28.78,68.24,4.97
260,Bethel,1,US,1554083760,53,60.79,-161.76,51.8,11.41
261,Blairmore,90,CA,1554084931,93,49.61,-114.44,39.0,3.36
262,Geraldton,20,CA,1554084000,57,49.72,-86.95,23.0,6.93
263,Sorland,92,NO,1554086453,100,67.67,12.69,37.82,19.84
264,Hailin,32,CN,1554086453,51,44.57,129.38,34.22,7.54
265,Uhlove,0,UA,1554086453,98,44.82,33.6,39.89,8.66
266,Presidencia Roque Saenz Pena,24,AR,1554086454,77,-26.79,-60.44,79.31,8.77
267,Richards Bay,0,ZA,1554086271,93,-28.77,32.06,70.13,11.01
268,Hastings,92,NZ,1554086334,77,-39.64,176.84,72.29,20.29
269,Bayanday,8,RU,1554086454,35,53.07,105.52,39.08,3.85
270,Siirt,80,TR,1554086454,100,37.93,41.94,41.6,2.06
271,Rivadavia,24,AR,1554086454,72,-31.53,-68.59,66.62,4.52
272,Leningradskiy,56,RU,1554086455,92,69.38,178.42,11.0,12.24
273,Port Hedland,0,AU,1554084000,20,-20.31,118.58,95.0,11.41
274,Kahului,40,US,1554086384,61,20.89,-156.47,80.6,11.41
275,Katsuura,75,JP,1554086060,53,33.93,134.5,50.0,13.87
276,Hami,88,CN,1554086455,47,42.84,93.51,55.55,6.2
277,Mar del Plata,36,AR,1554086242,48,-46.43,-67.52,63.2,13.13
278,Talara,0,PE,1554086456,70,-4.58,-81.27,73.91,6.31
279,Vilyuysk,24,RU,1554086456,64,63.75,121.63,34.4,4.97
280,Chaiya,0,IN,1554086456,35,29.28,74.48,78.41,4.18
281,Yangambi,92,CD,1554086456,100,0.77,24.47,69.86,4.74
282,Aix-les-Bains,0,FR,1554086408,86,45.69,5.91,46.0,2.24
283,Maceio,20,BR,1554084000,83,-9.67,-35.74,78.8,2.24
284,Lenger,75,KZ,1554084000,94,42.18,69.89,37.4,15.66
285,Pevek,20,RU,1554086457,76,69.7,170.27,11.63,3.29
286,Airai,8,TL,1554086282,55,-8.93,125.41,83.81,1.72
287,Vila do Maio,20,CV,1554084000,72,15.13,-23.22,68.0,17.22
288,Manggar,0,ID,1554086457,90,-2.88,108.27,87.23,3.96
289,Omsukchan,88,RU,1554086458,84,62.53,155.8,18.74,7.76
290,Nyurba,32,RU,1554086458,59,63.29,118.35,34.49,5.3
291,Castelbuono,36,IT,1554085856,75,37.93,14.09,53.01,3.0
292,Hay River,75,CA,1554084000,74,60.82,-115.79,37.4,12.75
293,Fortuna,75,ES,1554086433,93,38.18,-1.13,57.2,6.93
294,Mogadishu,12,SO,1554086458,99,2.04,45.34,83.0,13.58
295,Kruisfontein,32,ZA,1554086459,91,-34.0,24.73,58.7,22.08
296,Lorengau,88,PG,1554086296,94,-2.02,147.27,84.35,11.56
297,Abha,0,SA,1554084000,71,18.22,42.5,60.8,11.41
298,Ames,90,US,1554086416,80,42.03,-93.62,37.99,5.82
299,Puerto Leguizamo,68,CO,1554086345,93,-0.19,-74.78,76.43,2.17
300,Hithadhoo,0,MV,1554086459,100,-0.6,73.08,83.18,5.53
301,Montague,90,CA,1554086429,100,46.17,-62.65,43.0,17.22
302,Abnub,0,EG,1554084000,43,27.27,31.15,50.0,13.87
303,Japura,56,ID,1554086460,86,-0.42,102.29,80.3,2.95
304,Codrington,90,AU,1554086241,53,-28.95,153.24,78.01,6.93
305,Omboue,88,GA,1554086460,100,-1.57,9.26,83.9,7.76
306,Terrace Bay,8,CA,1554086460,90,48.78,-87.1,29.36,11.34
307,Kaputa,36,ZM,1554086461,98,-8.47,29.66,63.65,2.28
308,Chabahar,0,IR,1554086461,94,25.29,60.65,75.26,6.42
309,Vestmanna,80,FO,1554083400,75,62.16,-7.17,42.8,13.87
310,Barcelos,0,PT,1554086224,71,41.53,-8.62,59.0,4.7
311,Uspenka,0,UA,1554086462,72,48.39,39.16,37.91,4.07
312,Yuzhno-Kurilsk,0,RU,1554086462,100,44.03,145.86,29.9,16.04
313,Santiago de Cao,75,PE,1554084000,88,-7.96,-79.24,69.8,10.29
314,Peniche,20,PT,1554086230,93,39.36,-9.38,57.2,3.36
315,Aksu,40,KZ,1554084000,100,52.04,76.93,30.2,2.24
316,Caravelas,0,BR,1554086296,100,-17.73,-39.27,81.02,12.01
317,Pangkalanbuun,0,ID,1554086302,87,-2.68,111.62,85.88,4.29
318,Teya,40,MX,1554085853,69,21.05,-89.07,79.0,6.93
319,Longyearbyen,40,NO,1554083400,65,78.22,15.63,6.8,4.7
320,San Lazaro,0,BZ,1554084000,88,18.04,-88.66,78.8,3.36
321,Lompoc,1,US,1554086247,59,34.64,-120.46,64.4,8.05
322,Quang Ngai,12,VN,1554086464,75,15.12,108.8,82.82,3.06
323,Jining,0,CN,1554086449,7,35.41,116.58,73.0,3.0
324,Salinopolis,92,BR,1554086210,100,-0.61,-47.36,79.04,8.32
325,Gayny,88,RU,1554086464,94,60.3,54.33,29.99,2.73
326,Punta Gorda,1,US,1554086434,88,26.93,-82.05,71.6,3.36
327,Baillif,0,GP,1554084000,78,16.02,-61.75,75.2,2.24
328,Tiksi,8,RU,1554086465,78,71.64,128.87,29.45,8.21
329,Karratha,0,AU,1554086240,28,-20.74,116.85,98.03,3.62
330,Petatlan,5,MX,1554083520,69,17.52,-101.27,78.8,2.51
331,Isangel,75,VU,1554084000,79,-19.55,169.27,84.2,9.17
332,Anjozorobe,75,MG,1554084000,100,-18.4,47.88,64.4,4.7
333,Juneau,1,US,1554083760,22,58.3,-134.42,57.2,6.93
334,Mandalgovi,92,MN,1554086466,63,45.76,106.27,35.39,9.78
335,Tucuman,24,PE,1554086466,80,-17.17,-70.89,58.25,2.39
336,Bartica,20,GY,1554084000,88,6.41,-58.62,75.2,4.7
337,Bielsko-Biala,75,PL,1554086211,72,49.82,19.05,41.0,11.41
338,Jalu,0,LY,1554086470,68,29.03,21.55,47.9,3.74
339,Zhuhai,0,CN,1554084000,14,40.71,112.04,44.6,2.24
340,Varnamo,0,SE,1554085897,79,57.19,14.04,25.0,1.12
341,Moussoro,0,TD,1554086470,19,13.64,16.49,73.37,14.03
342,Russell,75,AR,1554084000,49,-33.01,-68.8,73.4,14.99
343,Wakema,0,MM,1554086471,62,16.6,95.18,86.6,7.76
344,Haines Junction,0,CA,1554086471,50,60.75,-137.51,37.19,2.06
345,Monte Alegre,32,BR,1554086471,96,-2.0,-54.07,75.8,2.51
346,Saint Simons,75,US,1554086284,59,31.14,-81.39,64.4,10.29
347,Nhlangano,48,SZ,1554086471,95,-27.11,31.2,57.71,2.17
348,Vitim,0,RU,1554086472,62,59.44,112.57,34.58,3.74
349,Crailsheim,1,DE,1554086408,100,49.14,10.07,46.99,10.29
350,Rio Gallegos,90,AR,1554084000,87,-51.62,-69.22,51.8,4.7
351,Poum,0,MK,1554086281,76,41.28,20.71,29.36,1.39
352,Quatre Cocos,75,MU,1554086341,94,-20.21,57.76,75.2,5.82
353,Usinsk,80,RU,1554086473,91,66.0,57.56,26.3,10.22
354,Tongling,20,CN,1554086473,63,30.93,117.81,63.02,4.97
355,Saldanha,20,PT,1554086247,94,41.42,-6.55,39.8,2.62
356,Northam,0,GB,1554086413,80,51.04,-4.21,43.0,12.75
357,Virovitica,0,HR,1554086473,83,45.83,17.39,38.09,2.84
358,Maniitsoq,76,GL,1554086474,87,65.42,-52.9,22.97,12.8
359,Helena,1,US,1554085829,51,46.59,-112.04,42.8,5.41
360,Kachug,0,RU,1554086474,60,53.96,105.89,35.93,3.62
361,Constitucion,5,MX,1554083220,15,23.99,-104.67,71.6,9.17
362,Hualmay,32,PE,1554086414,98,-11.1,-77.61,64.28,5.53
363,Gonzalez,76,CO,1554086474,91,8.39,-73.38,68.51,2.06
364,Vardo,75,US,1554086470,40,39.62,-77.74,35.6,26.4
365,Hobyo,92,SO,1554086365,85,5.35,48.53,80.03,9.22
366,Ca Mau,56,VN,1554086475,81,9.18,105.15,86.33,8.66
367,Talkha,64,EG,1554086475,95,31.05,31.37,52.31,10.78
368,Flinders,75,AU,1554086417,72,-34.58,150.85,70.0,6.93
369,Andra,8,RU,1554086475,80,62.52,65.89,25.04,7.31
370,West Lorne,90,CA,1554086408,63,42.6,-81.61,30.2,14.99
371,Nurpur,0,IN,1554086476,30,32.3,75.88,67.25,4.07
372,Sosnovo-Ozerskoye,0,RU,1554086476,46,52.53,111.54,32.6,4.29
373,Pampa,90,US,1554085902,42,35.54,-100.96,48.2,4.7
374,Zhigansk,64,RU,1554086289,78,66.77,123.37,26.93,8.43
375,Natal,75,BR,1554084000,88,-5.81,-35.21,78.8,2.24
376,Puerto del Rosario,44,ES,1554084000,77,28.5,-13.86,62.6,4.7
377,San Vicente,75,SV,1554083400,83,13.64,-88.78,80.6,5.82
378,Nabire,48,ID,1554086478,85,-3.36,135.5,78.23,2.62
379,Severodvinsk,20,RU,1554084000,92,64.56,39.82,21.2,6.71
380,Rabo de Peixe,75,PT,1554085800,82,37.8,-25.58,55.4,18.34
381,Beyneu,0,KZ,1554086478,78,45.32,55.19,30.98,2.95
382,Kununurra,0,AU,1554084000,18,-15.77,128.74,93.2,11.41
383,Cayenne,80,GF,1554084000,78,4.94,-52.33,78.8,1.12
384,Charyshskoye,92,RU,1554086478,98,51.4,83.56,39.08,3.4
385,Langsa,56,ID,1554086479,95,4.47,97.97,78.5,0.72
386,Pisco,12,PE,1554084000,73,-13.71,-76.2,75.2,9.17
387,Sampit,44,ID,1554086479,94,-2.54,112.95,84.62,5.97
388,Brae,68,GB,1554085200,86,60.4,-1.35,42.8,18.34
389,Kysyl-Syr,48,RU,1554086479,67,63.9,122.77,32.33,4.52
390,Birao,0,CF,1554086479,31,10.3,22.78,67.61,7.99
391,Caiaponia,68,BR,1554086438,42,-16.96,-51.81,83.0,7.54
392,San Jose,68,PH,1554086481,74,15.79,120.99,80.93,3.06
393,Banda Aceh,8,ID,1554086481,86,5.56,95.32,83.18,1.72
394,Chapais,75,CA,1554084000,56,49.78,-74.86,14.0,13.87
395,Ust-Tsilma,56,RU,1554086389,88,65.44,52.15,24.41,5.53
396,Port Blair,0,IN,1554086432,100,11.67,92.75,83.63,7.54
397,Bloomington,1,US,1554086225,59,40.47,-88.99,35.01,2.95
398,Adeje,0,NG,1554086482,95,5.68,5.76,77.6,5.97
399,Patacamaya,88,BO,1554086482,100,-17.23,-67.92,42.68,1.72
400,Vostok,76,RU,1554086271,51,46.45,135.83,29.9,3.4
401,Sitka,0,US,1554085807,38,37.17,-99.65,42.01,5.99
402,Ovalle,68,CL,1554086483,89,-30.6,-71.2,59.06,3.74
403,Jiayuguan,44,CN,1554086254,69,39.77,98.29,43.85,2.62
404,Buenos Aires,0,AR,1554086321,78,-34.61,-58.44,72.0,12.75
405,Faanui,0,PF,1554086484,100,-16.48,-151.75,84.08,3.74
406,Lander,1,US,1554085960,58,42.83,-108.73,42.8,9.17
407,Jiangdu,0,CN,1554086470,27,32.43,119.56,68.0,1.99
408,Jiancheng,40,CN,1554086464,87,30.39,104.55,66.99,4.47
409,Matara,64,PE,1554086485,95,-13.74,-72.9,43.31,1.61
410,Bose,0,IT,1554086484,42,45.46,8.01,52.0,3.36
411,Jiazi,75,CN,1554084000,100,19.61,110.49,71.6,4.47
412,Xiaoshi,0,CN,1554086485,48,30.59,116.63,61.13,3.62
413,Zhangye,24,CN,1554086485,92,38.94,100.46,46.28,1.83
414,Petropavlovsk-Kamchatskiy,20,RU,1554084000,69,53.05,158.65,33.8,8.95
415,Vrangel,8,RU,1554086486,98,42.73,133.08,36.83,14.58
416,Mariestad,0,SE,1554085912,85,58.71,13.82,30.2,3.36
417,Coquimbo,0,CL,1554084000,77,-29.95,-71.34,59.0,4.7
418,Lucea,40,JM,1554085923,83,18.44,-78.17,78.8,3.36
419,Muros,0,ES,1554086472,81,42.77,-9.06,57.99,3.36
420,Maloy,64,ID,1554086487,69,1.0,118.1,85.16,3.51
421,Port Moresby,40,PG,1554084000,66,-9.47,147.16,87.8,8.05
422,Ratnagiri,0,IN,1554086487,100,16.98,73.3,78.68,3.74
423,La Romana,40,DO,1554084000,94,18.43,-68.97,73.4,4.7
424,Playas,76,EC,1554086487,81,-2.64,-80.39,76.25,8.32
425,Norman Wells,90,CA,1554084000,94,65.28,-126.83,32.0,11.41
426,Yankton,40,US,1554086485,52,42.87,-97.4,48.2,12.75
427,Lavrentiya,64,RU,1554086488,100,65.58,-170.99,29.18,5.3
428,Gallup,1,US,1554083580,55,35.53,-108.74,39.2,5.82
429,Fengzhen,36,CN,1554086488,36,40.43,113.15,45.02,3.96
430,Kinkala,0,CG,1554084000,94,-4.35,14.75,75.2,2.39
431,Bayir,0,TR,1554085200,66,37.27,28.22,54.0,5.82
432,Sereflikochisar,92,TR,1554086489,100,38.94,33.54,39.98,0.83
433,Grand Gaube,75,MU,1554086341,94,-20.01,57.66,75.2,5.82
434,Ajdabiya,0,LY,1554086489,86,30.75,20.22,42.23,2.84
435,Jalpan,0,MX,1554086489,66,19.0,-100.36,53.48,1.72
436,Lebedyn,32,UA,1554086489,88,50.58,34.48,38.72,8.66
437,Tumaco,88,CO,1554086490,92,1.8,-78.82,76.16,5.64
438,Coos Bay,90,US,1554086422,87,43.37,-124.22,53.01,3.36
439,Santona,20,ES,1554086472,76,43.44,-3.46,57.2,1.12
440,Newport,75,GB,1554086224,80,51.59,-3.0,42.01,12.75
441,Ambilobe,88,MG,1554086491,100,-13.19,49.05,73.19,2.95
442,Karuzi,88,BI,1554086492,96,-3.1,30.16,59.96,1.95
443,Don Sak,20,TH,1554085800,62,9.32,99.69,89.6,6.93
444,Honiara,76,SB,1554086492,100,-9.43,159.96,77.33,1.72
445,Jarva-Jaani,0,EE,1554086284,70,59.04,25.89,32.0,7.0
446,Uthal,0,PK,1554086492,26,25.81,66.62,70.94,3.18
447,Lulea,0,SE,1554083400,58,65.58,22.15,28.4,11.41
448,Gushikawa,40,JP,1554085945,52,26.35,127.87,64.4,11.41
449,Canon City,0,US,1554086493,36,39.46,-117.13,33.41,2.39
450,Derzhavinsk,0,KZ,1554086493,85,51.1,66.31,26.3,0.94
451,Berlevag,48,NO,1554086493,100,70.86,29.09,29.0,19.28
452,Walla Walla,1,US,1554086437,25,46.06,-118.33,64.4,2.73
453,Jieshi,80,CN,1554086494,93,22.82,115.83,68.96,20.51
454,Forio,24,IT,1554086465,100,40.73,13.86,53.01,2.24
455,Seybaplaya,5,MX,1554083160,83,19.65,-90.67,78.8,11.41
456,Kaka,48,TM,1554086494,99,37.35,59.62,38.27,2.28
457,Sainte-Rose,90,CA,1554086489,74,45.61,-73.79,32.0,9.17
458,Glendive,1,US,1554084900,64,47.11,-104.71,35.6,8.05
459,Valparaiso,1,US,1554086450,58,41.47,-87.06,32.0,2.62
460,Taoudenni,0,ML,1554086456,77,22.68,-3.98,54.2,6.87
461,Cape Coast,0,GH,1554086495,92,5.11,-1.24,75.08,3.29
462,Ilo,0,PE,1554086496,100,-17.65,-71.34,60.32,2.73
463,Madang,64,PG,1554086496,89,-5.21,145.81,82.82,3.96
464,Narva-Joesuu,8,EE,1554086496,87,59.46,28.04,31.25,9.78
465,Morondava,0,MG,1554086496,100,-20.3,44.28,71.03,1.5
466,Wajima,75,JP,1554084000,73,37.4,136.9,41.0,2.24
467,Pangody,0,RU,1554086496,86,65.85,74.49,21.98,12.91
468,Puerto Ayacucho,40,CO,1554084000,78,5.66,-67.63,82.4,1.72
469,Mehamn,88,NO,1554086497,88,71.03,27.85,28.64,16.15
470,Contai,8,IN,1554086497,86,21.78,87.75,85.07,14.47
471,Grand-Santi,20,GF,1554086497,65,4.27,-54.38,81.02,4.63
472,Atherton,90,GB,1554086466,78,53.52,-2.49,43.0,4.7
473,Biltine,0,TD,1554086498,24,14.53,20.93,68.15,8.77
474,Ipatinga,92,BR,1554086498,75,-19.48,-42.53,69.5,3.85
475,Mana,0,RS,1554085800,72,43.52,20.24,37.4,2.24
476,Tabou,32,CI,1554086498,96,4.42,-7.36,84.62,6.64
477,Kavaratti,0,IN,1554086499,99,10.57,72.64,84.62,9.22
478,Urusha,8,RU,1554086499,41,54.05,122.9,31.52,6.2
479,Yerbogachen,48,RU,1554086499,70,61.28,108.01,33.59,6.64
480,Araguaina,24,BR,1554086499,96,-7.19,-48.21,72.83,3.18
481,Kafanchan,20,NG,1554086499,73,9.58,8.3,66.71,1.95
482,Presidente Epitacio,0,BR,1554086428,57,-21.76,-52.12,76.07,8.1
483,Nantucket,90,US,1554086288,87,41.28,-70.1,43.0,16.11
484,Sattenapalle,0,IN,1554086500,56,16.39,80.15,82.82,7.31
485,Merrill,1,US,1554086432,24,42.03,-121.6,59.0,3.36
486,Kuloy,0,RU,1554086500,83,61.03,42.49,20.54,8.66
487,Soest,0,NL,1554086493,64,52.17,5.29,39.99,16.11
488,Shieli,56,KZ,1554086501,99,44.18,66.74,38.54,10.33
489,Margate,40,AU,1554086485,41,-43.03,147.26,63.0,5.82
490,Meulaboh,12,ID,1554086501,100,4.14,96.13,82.73,3.4
491,Portland,90,US,1554086299,28,45.52,-122.67,68.0,5.82
492,Kiunga,56,PG,1554086501,73,-6.12,141.3,85.25,3.29
493,Ust-Nera,0,RU,1554086502,74,64.57,143.24,15.86,2.39
494,Porto Novo,40,BR,1554084000,100,-23.68,-45.44,66.2,4.7
495,Dwarka,0,IN,1554085808,63,28.58,77.04,88.0,5.82
496,Kilindoni,80,TZ,1554086502,100,-7.91,39.67,83.72,9.66
497,Predivinsk,92,RU,1554086502,79,57.07,93.44,43.31,8.99
498,Xuddur,0,SO,1554086503,76,4.12,43.89,70.31,10.22
499,Wawa,48,NG,1554086503,72,9.9,4.41,77.6,3.4
500,Tocopilla,12,CL,1554086503,100,-22.09,-70.2,62.03,5.75
501,Aklavik,90,CA,1554084000,74,68.22,-135.01,28.4,14.99
502,Bharatpur,0,NP,1554086259,70,27.68,84.43,70.85,2.73
503,Igrim,8,RU,1554086504,73,63.19,64.42,28.1,6.98
504,Araouane,20,ML,1554086504,42,18.9,-3.53,76.88,10.22
505,Darnah,0,LY,1554086504,100,32.77,22.64,59.96,17.94
506,Gusau,0,NG,1554086504,33,12.17,6.66,69.59,8.77
507,Montbrison,0,FR,1554085955,80,45.61,4.07,45.0,1.12
508,Sirjan,80,IR,1554086505,65,29.44,55.67,50.78,9.66
509,Ust-Maya,0,RU,1554086505,57,60.42,134.54,28.46,5.3
510,Kalinovskaya,75,RU,1554084000,81,43.57,45.52,33.8,6.71
511,Palmer,20,AU,1554086468,42,-34.85,139.16,73.99,11.41
512,Mbigou,80,GA,1554086506,96,-1.9,11.91,71.48,2.17
513,Belyy Yar,0,RU,1554084000,70,53.6,91.39,42.8,11.18
514,Fort Nelson,40,CA,1554084000,31,58.81,-122.69,48.2,3.36
515,Aracati,64,BR,1554086506,97,-4.56,-37.77,74.45,2.17
516,Kotma,0,IN,1554086506,34,23.2,81.98,82.46,4.07
517,Banyuwangi,44,ID,1554086507,94,-8.21,114.37,81.38,3.18
518,Kiruna,0,SE,1554083400,57,67.86,20.23,23.0,11.41
519,Saint Anthony,90,US,1554086421,34,43.97,-111.68,48.2,9.17
520,Poso,88,ID,1554086507,100,-1.4,120.75,79.04,4.63
521,Bambanglipuro,56,ID,1554086507,90,-7.95,110.28,83.09,4.18
522,North Bend,90,US,1554086131,87,43.41,-124.22,53.01,3.36
523,Ucluelet,0,CA,1554086473,91,48.94,-125.55,48.99,1.16
524,The Valley,20,AI,1554085921,74,18.22,-63.06,78.8,8.05
525,Salalah,75,OM,1554083400,78,17.01,54.1,75.2,3.36
526,Guhagar,0,IN,1554086508,93,17.48,73.19,78.14,3.74
527,Makakilo City,1,US,1554086341,61,21.35,-158.09,80.6,11.41
528,Gimli,8,CA,1554086437,78,50.63,-96.99,32.0,8.01
529,Najran,0,SA,1554084000,28,17.54,44.22,73.4,2.24
530,Abapo,0,BO,1554086509,65,-18.83,-63.47,75.35,4.97
531,Asosa,0,ET,1554086509,46,10.07,34.53,59.42,4.18
532,Halden,0,SE,1554086419,73,59.12,11.39,33.01,4.7
533,Pimentel,92,BR,1554086510,100,-3.7,-45.5,72.11,1.72
534,Yanam,20,IN,1554084000,61,16.73,82.22,82.4,8.05
535,Wanning,75,AT,1554086508,70,48.64,13.53,48.2,11.41
536,Barghat,0,IN,1554086510,56,22.03,79.74,74.81,4.52
537,Fochville,80,ZA,1554086404,72,-26.49,27.49,66.99,6.98
538,Krusevac,0,HR,1554084000,75,43.38,17.11,50.0,3.36
539,Sulangan,8,PH,1554086511,100,11.14,123.72,80.93,13.24
540,Cotonou,20,BJ,1554084000,83,6.37,2.43,84.2,4.7
541,Manjacaze,0,MZ,1554086511,85,-24.71,33.88,63.47,3.62
542,Madimba,20,CM,1554084000,94,4.42,9.93,78.8,4.7
543,Katangli,80,RU,1554086512,95,51.71,143.23,24.86,16.26
544,Minot,90,US,1554086440,64,48.23,-101.3,35.6,4.7
545,Virarajendrapet,0,IN,1554086512,71,12.2,75.8,83.0,3.18
546,Alice Springs,0,AU,1554084000,26,-23.7,133.88,73.4,13.87
547,Olhao,75,PT,1554086233,87,37.03,-7.84,59.0,5.82
548,Timra,0,SE,1554086343,79,62.49,17.33,30.99,3.36
549,Sortavala,0,RU,1554086513,70,61.7,30.69,21.26,10.22
550,Swan River,36,CA,1554086513,61,52.11,-101.27,27.47,5.75
